{
"type": "FeatureCollection",
"name": "rumah_jamaah_annuur",
"crs": { "type": "name", "properties": { "name": "urn:ogc:def:crs:OGC:1.3:CRS84" } },
"features": [
{ "type": "Feature", "properties": { "Name": "Rumah Bp. Didik", "Alamat": "Depokan RT 07 RW 02, Kel. Prenggan, Kec. Kotagede", "Nama_KK": "Bp. Didik", "Jml_Kel": 6, "Aktif": "Ya", "Foto": "1.jpg", "No": 1 }, "geometry": { "type": "Point", "coordinates": [ 110.396182925099794, -7.81498548516192, 0.0 ] } },
{ "type": "Feature", "properties": { "Name": "Rumah Bp. H.  Noor Arifin, S.T.", "Alamat": "Depokan RT 07 RW 02, Kel. Prenggan, Kec. Kotagede", "Nama_KK": "Bp. H.  Noor Arifin, S.T.", "Jml_Kel": 5, "Aktif": "Ya", "Foto": "2.jpg", "No": 2 }, "geometry": { "type": "Point", "coordinates": [ 110.396273793319807, -7.814868028099956, 0.0 ] } },
{ "type": "Feature", "properties": { "Name": "Rumah Bp. Sagiman", "Alamat": "Depokan RT 07 RW 02, Kel. Prenggan, Kec. Kotagede", "Nama_KK": "Bp. Sagiman", "Jml_Kel": 2, "Aktif": "Ya", "Foto": "3.jpg", "No": 3 }, "geometry": { "type": "Point", "coordinates": [ 110.396446134896905, -7.814859229173112, 0.0 ] } },
{ "type": "Feature", "properties": { "Name": "Rumah Bp. Suryadi", "Alamat": "Depokan RT 07 RW 02, Kel. Prenggan, Kec. Kotagede", "Nama_KK": "Bp. Suryadi", "Jml_Kel": 3, "Aktif": "Ya", "Foto": "4.jpg", "No": 4 }, "geometry": { "type": "Point", "coordinates": [ 110.396119292616802, -7.815084890834763, 0.0 ] } },
{ "type": "Feature", "properties": { "Name": "Rumah Ibu Ning", "Alamat": "Pelemsari RT 03 RW 01, Kel. Prenggan, Kec. Kotagede", "Nama_KK": "Ibu Ning", "Jml_Kel": 1, "Aktif": "Tidak", "Foto": "5.jpg", "No": 5 }, "geometry": { "type": "Point", "coordinates": [ 110.395883682510998, -7.814939831670139, 0.0 ] } },
{ "type": "Feature", "properties": { "Name": "Rumah Bp. Fajar", "Alamat": "Pelemsari RT 03 RW 01, Kel. Prenggan, Kec. Kotagede", "Nama_KK": "Bp. Fajar", "Jml_Kel": 4, "Aktif": "Tidak", "Foto": "6.jpg", "No": 6 }, "geometry": { "type": "Point", "coordinates": [ 110.395955994874598, -7.815111792843792, 0.0 ] } },
{ "type": "Feature", "properties": { "Name": "Rumah Bp. Bambang Muhajid", "Alamat": "Pelemsari RT 03 RW 01, Kel. Prenggan, Kec. Kotagede", "Nama_KK": "Bp. Bambang Muhajid", "Jml_Kel": 4, "Aktif": "Ya", "Foto": "7.jpg", "No": 7 }, "geometry": { "type": "Point", "coordinates": [ 110.395928642048005, -7.815211250349178, 0.0 ] } },
{ "type": "Feature", "properties": { "Name": "Rumah Bp. Fadly", "Alamat": "Depokan RT 07 RW 02, Kel. Prenggan, Kec. Kotagede", "Nama_KK": "Bp. Fadly", "Jml_Kel": 2, "Aktif": "Tidak", "Foto": "8.jpg", "No": 8 }, "geometry": { "type": "Point", "coordinates": [ 110.396110144691093, -7.815139148640814, 0.0 ] } },
{ "type": "Feature", "properties": { "Name": "Rumah Bp. Rama", "Alamat": "Depokan RT 07 RW 02, Kel. Prenggan, Kec. Kotagede", "Nama_KK": "Bp. Rama", "Jml_Kel": 2, "Aktif": "Tidak", "Foto": "9.jpg", "No": 9 }, "geometry": { "type": "Point", "coordinates": [ 110.395974251754495, -7.815030412624936, 0.0 ] } },
{ "type": "Feature", "properties": { "Name": "Rumah Bp. H. Rujito", "Alamat": "Depokan RT 07 RW 02, Kel. Prenggan, Kec. Kotagede", "Nama_KK": "Bp. H. Rujito", "Jml_Kel": 2, "Aktif": "Ya", "Foto": "10.jpg", "No": 10 }, "geometry": { "type": "Point", "coordinates": [ 110.396282122494299, -7.815383613387752, 0.0 ] } },
{ "type": "Feature", "properties": { "Name": "Rumah Ibu Srenggani", "Alamat": "Depokan RT 07 RW 02, Kel. Prenggan, Kec. Kotagede", "Nama_KK": "Ibu Srenggani", "Jml_Kel": 1, "Aktif": "Ya", "Foto": "11.jpg", "No": 11 }, "geometry": { "type": "Point", "coordinates": [ 110.396363725935203, -7.815401820281761, 0.0 ] } },
{ "type": "Feature", "properties": { "Name": "Rumah Bp. H. Iskandar", "Alamat": "Depokan RT 07 RW 02, Kel. Prenggan, Kec. Kotagede", "Nama_KK": "Bp. H. Iskandar", "Jml_Kel": 2, "Aktif": "Ya", "Foto": "12.jpg", "No": 12 }, "geometry": { "type": "Point", "coordinates": [ 110.396354863908797, -7.815257085265324, 0.0 ] } },
{ "type": "Feature", "properties": { "Name": "Rumah Bp. Siswanto", "Alamat": "Depokan RT 07 RW 02, Kel. Prenggan, Kec. Kotagede", "Nama_KK": "Bp. Siswanto", "Jml_Kel": 2, "Aktif": "Ya", "Foto": "13.jpg", "No": 13 }, "geometry": { "type": "Point", "coordinates": [ 110.396364102764693, -7.815139511551304, 0.0 ] } },
{ "type": "Feature", "properties": { "Name": "Rumah Bp. Dody", "Alamat": "Depokan RT 07 RW 02, Kel. Prenggan, Kec. Kotagede", "Nama_KK": "Bp. Dody", "Jml_Kel": 2, "Aktif": "Ya", "Foto": "14.jpg", "No": 14 }, "geometry": { "type": "Point", "coordinates": [ 110.396527218637601, -7.815239241188698, 0.0 ] } },
{ "type": "Feature", "properties": { "Name": "Rumah Bp. H. Soeharjo", "Alamat": "Depokan RT 07 RW 02, Kel. Prenggan, Kec. Kotagede", "Nama_KK": "Bp. H. Soeharjo", "Jml_Kel": 2, "Aktif": "Ya", "Foto": "15.jpg", "No": 15 }, "geometry": { "type": "Point", "coordinates": [ 110.396536431464398, -7.815139757725071, 0.0 ] } },
{ "type": "Feature", "properties": { "Name": "Rumah Bp. H. Budhiarso", "Alamat": "Depokan RT 07 RW 02, Kel. Prenggan, Kec. Kotagede", "Nama_KK": "Bp. H. Budhiarso", "Jml_Kel": 4, "Aktif": "Tidak", "Foto": "16.jpg", "No": 16 }, "geometry": { "type": "Point", "coordinates": [ 110.396627481459007, -7.814895668773979, 0.0 ] } },
{ "type": "Feature", "properties": { "Name": "Rumah Bp. Topo", "Alamat": "Peleman RT 31 RW 10, Kel. Rejowinangun, Kec. Kotagede", "Nama_KK": "Bp. Topo", "Jml_Kel": 2, "Aktif": "Tidak", "Foto": "17.jpg", "No": 17 }, "geometry": { "type": "Point", "coordinates": [ 110.396092641798404, -7.814695911424499, 0.0 ] } },
{ "type": "Feature", "properties": { "Name": "Rumah Ibu Siti Solichah", "Alamat": "Peleman RT 32 RW 10, Kel. Rejowinangun, Kec. Kotagede", "Nama_KK": "Ibu Siti Solichah", "Jml_Kel": 3, "Aktif": "Tidak", "Foto": "18.jpg", "No": 18 }, "geometry": { "type": "Point", "coordinates": [ 110.396319389837899, -7.814696235450158, 0.0 ] } },
{ "type": "Feature", "properties": { "Name": "Rumah Ibu Fitri Rahmawati", "Alamat": "Peleman RT 31 RW 10, Kel. Rejowinangun, Kec. Kotagede", "Nama_KK": "Ibu Fitri Rahmawati", "Jml_Kel": 3, "Aktif": "Ya", "Foto": "19.jpg", "No": 19 }, "geometry": { "type": "Point", "coordinates": [ 110.396174271091596, -7.814696028087751, 0.0 ] } },
{ "type": "Feature", "properties": { "Name": "Rumah Bp. Anton", "Alamat": "Peleman RT 31 RW 10, Kel. Rejowinangun, Kec. Kotagede", "Nama_KK": "Bp. Anton", "Jml_Kel": 4, "Aktif": "Tidak", "Foto": "20.jpg", "No": 20 }, "geometry": { "type": "Point", "coordinates": [ 110.3960019425854, -7.814695781780167, 0.0 ] } },
{ "type": "Feature", "properties": { "Name": "Rumah Ibu Titik Suwarni", "Alamat": "Depokan RT 07 RW 02, Kel. Prenggan, Kec. Kotagede", "Nama_KK": "Ibu Titik", "Jml_Kel": 1, "Aktif": "Ya", "Foto": "21.jpg", "No": 21 }, "geometry": { "type": "Point", "coordinates": [ 110.395902212462005, -7.814668503764578, 0.0 ] } },
{ "type": "Feature", "properties": { "Name": "Rumah Bp. Tawang Alun", "Alamat": "Pelemsari RT 03 RW 01, Kel. Prenggan, Kec. Kotagede", "Nama_KK": "Bp. Tawang Alun", "Jml_Kel": 4, "Aktif": "Ya", "Foto": "22.jpg", "No": 22 }, "geometry": { "type": "Point", "coordinates": [ 110.395258091943504, -7.81477612410549, 0.0 ] } },
{ "type": "Feature", "properties": { "Name": "Rumah Bp. M. Hidayat", "Alamat": "Depokan RT 07 RW 02, Kel. Prenggan, Kec. Kotagede", "Nama_KK": "Bp. M. Hidayat", "Jml_Kel": 2, "Aktif": "Ya", "Foto": "23.jpg", "No": 23 }, "geometry": { "type": "Point", "coordinates": [ 110.397041459324342, -7.814843291739749, 0.0 ] } },
{ "type": "Feature", "properties": { "Name": "Rumah Bp. H. Drs. Aris Hidayat, S.Pt", "Alamat": "Pelemsari RT 03 RW 01, Kel. Prenggan, Kec. Kotagede", "Nama_KK": "Bp. H. Drs. Aris Hidayat, S.Pt", "Jml_Kel": 2, "Aktif": "Ya", "Foto": "24.jpg", "No": 24 }, "geometry": { "type": "Point", "coordinates": [ 110.39574707355051, -7.815184997571404, 0.0 ] } },
{ "type": "Feature", "properties": { "Name": "Rumah Bp. M. Daim", "Alamat": "Pelemsari RT 03 RW 01, Kel. Prenggan, Kec. Kotagede", "Nama_KK": "Bp. M. Daim", "Jml_Kel": 2, "Aktif": "Ya", "Foto": "25.jpg", "No": 25 }, "geometry": { "type": "Point", "coordinates": [ 110.395582084347225, -7.815181105743845, 0.0 ] } },
{ "type": "Feature", "properties": { "Name": "Rumah Bp. Maryono, S.Pd., M.T.", "Alamat": "Pelemsari RT 03 RW 01, Kel. Prenggan, Kec. Kotagede", "Nama_KK": "Bp. Maryono, S.Pd., M.T.", "Jml_Kel": 6, "Aktif": "Ya", "Foto": "26.jpg", "No": 26 }, "geometry": { "type": "Point", "coordinates": [ 110.395611546704956, -7.815346508383102, 0.0 ] } },
{ "type": "Feature", "properties": { "Name": "Rumah Bp. Suwarsono", "Alamat": "Pelemsari RT 03 RW 01, Kel. Prenggan, Kec. Kotagede", "Nama_KK": "Bp. Suwarsono", "Jml_Kel": 3, "Aktif": "Ya", "Foto": "27.jpg", "No": 27 }, "geometry": { "type": "Point", "coordinates": [ 110.395843317252428, -7.815622827940133, 0.0 ] } },
{ "type": "Feature", "properties": { "Name": "Rumah Bp. Tukirjono", "Alamat": "Depokan RT 07 RW 02, Kel. Prenggan, Kec. Kotagede", "Nama_KK": "Bp. Tukirjono", "Jml_Kel": 2, "Aktif": "Ya", "Foto": "28.jpg", "No": 28 }, "geometry": { "type": "Point", "coordinates": [ 110.396167403187462, -7.815109106927459, 0.0 ] } },
{ "type": "Feature", "properties": { "Name": "Rumah Bp. H. Riyadi", "Alamat": "Peleman RT 31 RW 10, Kel. Rejowinangun, Kec. Kotagede", "Nama_KK": "Bp. H. Riyadi", "Jml_Kel": 2, "Aktif": "Ya", "Foto": "29.jpg", "No": 29 }, "geometry": { "type": "Point", "coordinates": [ 110.395637080748315, -7.814599277115613, 0.0 ] } },
{ "type": "Feature", "properties": { "Name": "Rumah Bp. H. Suwandi", "Alamat": "Pelemsari RT 03 RW 01, Kel. Prenggan, Kec. Kotagede", "Nama_KK": "Bp. H. Suwandi", "Jml_Kel": 1, "Aktif": "Ya", "Foto": "30.jpg", "No": 30 }, "geometry": { "type": "Point", "coordinates": [ 110.394598996362717, -7.814647600890599, 0.0 ] } },
{ "type": "Feature", "properties": { "Name": "Rumah Bp. Suprapto", "Alamat": "Pelemsari RT 03 RW 01, Kel. Prenggan, Kec. Kotagede", "Nama_KK": "Bp. Suprapto", "Jml_Kel": 2, "Aktif": "Tidak", "Foto": "31.jpg", "No": 31 }, "geometry": { "type": "Point", "coordinates": [ 110.39492261345427, -7.814683558345215, 0.0 ] } },
{ "type": "Feature", "properties": { "Name": "Rumah Bp. Arif Kurniawan", "Alamat": "Pelemrejo RT 33 RW 10, Kel. Rejowinangun", "Nama_KK": "Bp. Arif Kurniawan", "Jml_Kel": 3, "Aktif": "Tidak", "Foto": "32.jpg", "No": 32 }, "geometry": { "type": "Point", "coordinates": [ 110.395052459818146, -7.81456569779953, 0.0 ] } },
{ "type": "Feature", "properties": { "Name": "Ibu Amini Sujiati", "Alamat": "Depokan RT 07 RW 02, Kel. Prenggan, Kec. Kotagede", "Nama_KK": "Ibu Amini Sujiati", "Jml_Kel": 3, "Aktif": "Ya", "Foto": "33.jpg", "No": 33 }, "geometry": { "type": "Point", "coordinates": [ 110.396871465149275, -7.814827211209675, 0.0 ] } },
{ "type": "Feature", "properties": { "Name": "Rumah Bp.Taufiq Hudaya", "Alamat": "Peleman RT 31 RW 10, Kel. Rejowinangun, Kec. Kotagede", "Nama_KK": "Bp.Taufiq Hudaya", "Jml_Kel": 4, "Aktif": "Tidak", "Foto": "34.jpg", "No": 34 }, "geometry": { "type": "Point", "coordinates": [ 110.396185119638545, -7.814591667072309, 0.0 ] } },
{ "type": "Feature", "properties": { "Name": "Rumah Bp. Marsudi", "Alamat": "Pelemsari RT 03 RW 01, Kel. Prenggan, Kec. Kotagede", "Nama_KK": "Bp. Marsudi", "Jml_Kel": 2, "Aktif": "Ya", "Foto": "35.jpg", "No": 35 }, "geometry": { "type": "Point", "coordinates": [ 110.395038476363581, -7.814717518163467, 0.0 ] } },
{ "type": "Feature", "properties": { "Name": "Rumah Bp. Tri (Figo)", "Alamat": "Depokan RT 07 RW 02, Kel. Prenggan, Kec. Kotagede", "Nama_KK": "Bp. Tri", "Jml_Kel": 4, "Aktif": "Tidak", "Foto": "36.jpg", "No": 36 }, "geometry": { "type": "Point", "coordinates": [ 110.396934638660284, -7.814830657037548, 0.0 ] } },
{ "type": "Feature", "properties": { "Name": "Rumah Bp. Bambang Purwoto", "Alamat": "Depokan RT 07 RW 02, Kel. Prenggan, Kec. Kotagede", "Nama_KK": "Bp. Bambang Purwoto", "Jml_Kel": 2, "Aktif": "Tidak", "Foto": "37.jpg", "No": 37 }, "geometry": { "type": "Point", "coordinates": [ 110.396802548591822, -7.814823765381802, 0.0 ] } },
{ "type": "Feature", "properties": { "Name": "Rumah Bp. Supriyatno", "Alamat": "Peleman RT 32 RW 10, Kel. Rejowinangun, Kec. Kotagede", "Nama_KK": "Bp. Supriyatno", "Jml_Kel": 4, "Aktif": "Ya", "Foto": "38.jpg", "No": 38 }, "geometry": { "type": "Point", "coordinates": [ 110.396890991507235, -7.814721539154905, 0.0 ] } },
{ "type": "Feature", "properties": { "Name": "Rumah Ibu Sri", "Alamat": "Peleman RT 32 RW 10, Kel. Rejowinangun, Kec. Kotagede", "Nama_KK": "Ibu Sri", "Jml_Kel": 3, "Aktif": "Ya", "Foto": "39.jpg", "No": 39 }, "geometry": { "type": "Point", "coordinates": [ 110.39679910276395, -7.814702012796959, 0.0 ] } },
{ "type": "Feature", "properties": { "Name": "Rumah Bp. Kuswanto", "Alamat": "Peleman RT 32 RW 10, Kel. Rejowinangun, Kec. Kotagede", "Nama_KK": "Bp. Kuswanto", "Jml_Kel": 4, "Aktif": "Tidak", "Foto": "40.jpg", "No": 40 }, "geometry": { "type": "Point", "coordinates": [ 110.396725591769325, -7.81455384219842, 0.0 ] } },
{ "type": "Feature", "properties": { "Name": "Rumah Bp. Jasman", "Alamat": "Peleman RT 32 RW 10, Kel. Rejowinangun, Kec. Kotagede", "Nama_KK": "Bp. Jasman", "Jml_Kel": 4, "Aktif": "Tidak", "Foto": "41.jpg", "No": 41 }, "geometry": { "type": "Point", "coordinates": [ 110.396614176668109, -7.81463424484879, 0.0 ] } },
{ "type": "Feature", "properties": { "Name": "Rumah Bp. Marzuki", "Alamat": "Peleman RT 32 RW 10, Kel. Rejowinangun, Kec. Kotagede", "Nama_KK": "Bp. Marzuki", "Jml_Kel": 2, "Aktif": "Tidak", "Foto": "42.jpg", "No": 42 }, "geometry": { "type": "Point", "coordinates": [ 110.396456817195244, -7.81463424484879, 0.0 ] } },
{ "type": "Feature", "properties": { "Name": "Rumah Bp. R. Sudiro", "Alamat": "Peleman RT 32 RW 10, Kel. Rejowinangun, Kec. Kotagede", "Nama_KK": "Bp. R. Sudiro", "Jml_Kel": 4, "Aktif": "Ya", "Foto": "43.jpg", "No": 43 }, "geometry": { "type": "Point", "coordinates": [ 110.396375265935561, -7.81394852510207, 0.0 ] } },
{ "type": "Feature", "properties": { "Name": "Rumah Bp. Walkodri", "Alamat": "Peleman RT 32 RW 10, Kel. Rejowinangun, Kec. Kotagede", "Nama_KK": "Bp. Walkodri", "Jml_Kel": 2, "Aktif": "Ya", "Foto": "44.jpg", "No": 44 }, "geometry": { "type": "Point", "coordinates": [ 110.396321281298881, -7.814512492263945, 0.0 ] } },
{ "type": "Feature", "properties": { "Name": "Rumah Bp. Rahmad Hidayat", "Alamat": "Peleman RT 31 RW 10, Kel. Rejowinangun, Kec. Kotagede", "Nama_KK": "Bp. Rahmad Hidayat", "Jml_Kel": 2, "Aktif": "Ya", "Foto": "45.jpg", "No": 45 }, "geometry": { "type": "Point", "coordinates": [ 110.396204123151222, -7.81431148563802, 0.0 ] } },
{ "type": "Feature", "properties": { "Name": "Rumah Bp. Dana Kurniawan", "Alamat": "Peleman RT 31 RW 10, Kel. Rejowinangun, Kec. Kotagede", "Nama_KK": "Bp. Dana Kurniawan", "Jml_Kel": 7, "Aktif": "Ya", "Foto": "46.jpg", "No": 46 }, "geometry": { "type": "Point", "coordinates": [ 110.396238581429955, -7.814231082987652, 0.0 ] } },
{ "type": "Feature", "properties": { "Name": "Rumah Bp. Sepdi", "Alamat": "Peleman RT 31 RW 10, Kel. Rejowinangun, Kec. Kotagede", "Nama_KK": "Bp. Sepdi", "Jml_Kel": 2, "Aktif": "Ya", "Foto": "47.jpg", "No": 47 }, "geometry": { "type": "Point", "coordinates": [ 110.396244324476399, -7.814128856760753, 0.0 ] } },
{ "type": "Feature", "properties": { "Name": "Rumah Ibu Sipin", "Alamat": "Depokan RT 07 RW 02, Kel. Prenggan, Kec. Kotagede", "Nama_KK": "Ibu Sipin", "Jml_Kel": 2, "Aktif": "Tidak", "Foto": "48.jpg", "No": 48 }, "geometry": { "type": "Point", "coordinates": [ 110.396120274672981, -7.815441717180356, 0.0 ] } }
]
}
